[{"type":"current","school":"Harlem 1","lat":40.80251,"lng":-73.9468,"address":"34 West 118th Street, 2nd Floor New York, NY 10026","level":"elementary","grades":"K-4","opened":2006,"plans":"","ID":1,"note":""},
{"type":"current","school":"Harlem 2","lat":40.80565,"lng":-73.93547,"address":"144 East 128th Street, 3rd Floor New York, NY 10035","level":"elementary","grades":"K-4","opened":2008,"plans":"","ID":2,"note":""},
{"type":"current","school":"Harlem 3","lat":40.79554,"lng":-73.94413,"address":"141 East 111th Street, 3rd Floor New York, NY 10029","level":"elementary","grades":"K-4","opened":2008,"plans":"","ID":3,"note":""},
{"type":"current","school":"Harlem 4","lat":40.80158,"lng":-73.95527,"address":"240 West 113th Street, 3rd Floor New York, NY 10026","level":"elementary","grades":"K-4","opened":2008,"plans":"","ID":4,"note":""},
{"type":"current","school":"Harlem 5","lat":40.8199,"lng":-73.94458,"address":"301 West 140th Street, 3rd Floor New York, NY 10030","level":"elementary","grades":"K-4","opened":2010,"plans":"","ID":5,"note":""},
{"type":"current","school":"Bronx 1","lat":40.81345,"lng":-73.92566,"address":"339 Morris Avenue 2nd Floor Bronx, NY 10451","level":"elementary","grades":"K-4","opened":2010,"plans":"*planned K-8","ID":6,"note":""},
{"type":"current","school":"Bronx 2","lat":40.83591,"lng":-73.90499,"address":"450 St. Pauls Place 5th Floor, Bronx, NY 10456","level":"elementary","grades":"K-4","opened":2010,"plans":"*planned K-8","ID":7,"note":""},
{"type":"current","school":"Upper West","lat":40.78608,"lng":-73.97433,"address":"145 West 84th Street, 2nd Floor New York, NY 10024","level":"elementary","grades":"K-3","opened":2011,"plans":"*planned K-8","ID":8,"note":""},
{"type":"current","school":"Bed-Stuy 1","lat":40.69713,"lng":-73.94666,"address":"70 Tompkins Avenue 2nd Floor, Brooklyn, NY 11206","level":"elementary","grades":"K-3","opened":2011,"plans":"*planned K-8","ID":9,"note":""},
{"type":"current","school":"Bed-Stuy 2","lat":40.69762,"lng":-73.9433,"address":"211 Throop Avenue, 3rd Floor Brooklyn, NY 11206","level":"elementary","grades":"K-2","opened":2012,"plans":"*planned K-8","ID":10,"note":""},
{"type":"current","school":"Cobble Hill","lat":40.69868,"lng":-73.98594,"address":"284 Baltic Street, Lower Level Brooklyn, NY 11201","level":"elementary","grades":"K-2","opened":2012,"plans":"*planned K-8","ID":11,"note":""},
{"type":"current","school":"Williamsburg","lat":40.71157,"lng":-73.9599,"address":"183 South 3rd Street, 4th Floor Brooklyn, NY 11211","level":"elementary","grades":"K-2","opened":2012,"plans":"*planned K-8","ID":12,"note":""},
{"type":"current","school":"Harlem West","lat":40.80235,"lng":-73.95446,"address":"215 West 114th Street, 5th Floor New York , NY 10026","level":"middle","grades":"5 - 8","opened":2012,"plans":"","ID":13,"note":""},
{"type":"current","school":"Harlem Central","lat":40.79828,"lng":-73.95065,"address":"21 West 111th Street, 2nd Floor New York , NY 10026","level":"middle","grades":"5 - 6 ","opened":2012,"plans":"*planned 5-8","ID":14,"note":""},
{"type":"soon","school":"Hell's Kitchen","lat":40.76361,"lng":-73.99115,"address":"439 West 49th Street, New York, NY 10019","level":"elementary","grades":"K-1","opened":2013,"plans":"*planned K-8","ID":15,"note":""},
{"type":"soon","school":"Crown Heights","lat":40.66903,"lng":-73.93434,"address":"1025 Eastern Parkway, Brooklyn, NY 11213","level":"elementary","grades":"K-1","opened":2013,"plans":"*planned K-8","ID":16,"note":""},
{"type":"soon","school":"Fort Greene","lat":40.69635,"lng":-73.97594,"address":"101 Park Ave, Brooklyn, NY 11205","level":"elementary","grades":"K-1","opened":2013,"plans":"*planned K-8","ID":17,"note":""},
{"type":"soon","school":"Union Square","lat":40.73539,"lng":-73.98786,"address":"40 Irving Place, New York, NY 10003","level":"elementary","grades":"K-1","opened":2013,"plans":"*planned K-8","ID":18,"note":""},
{"type":"soon","school":"Prospect Heights","lat":40.67349,"lng":-73.95113,"address":"801 Park Place, Brooklyn, NY 11216","level":"elementary","grades":"K-1","opened":2013,"plans":"*planned K-8","ID":19,"note":""},
{"type":"soon","school":"Bronx 3","lat":40.82482,"lng":-73.9062,"address":"968 Cauldwell Ave., Bronx, NY 10456","level":"elementary","grades":"K-1","opened":2013,"plans":"*planned K-8","ID":20,"note":""},
{"type":"soon","school":"Harlem North Central","lat":40.81399,"lng":-73.94259,"address":"175 West 134th St, New York, NY 10030","level":"middle","grades":"5","opened":2013,"plans":"*planned 5-8","ID":21,"note":""},
{"type":"soon","school":"Harlem East","lat":40.79554,"lng":-73.94413,"address":"141 East 111th Street, 3rd Floor New York, NY 10029","level":"middle","grades":"5","opened":2013,"plans":"*planned 5-8","ID":22,"note":""},
{"type":"pending","school":"","lat":40.823742,"lng":-73.859733,"address":"885 Bolton Ave., Bronx, NY 10473","level":"elementary","grades":"K-1","opened":2014,"plans":"","ID":23,"note":"*Pending Government Approval"},
{"type":"pending","school":"","lat":40.621432,"lng":-73.913113,"address":"1420 East 68th St. Brooklyn, NY 11234","level":"elementary","grades":"K-1","opened":2014,"plans":"","ID":24,"note":"*Pending Government Approval"},
{"type":"pending","school":"","lat":40.607574,"lng":-73.984451,"address":"99 Avenue P, Brooklyn, NY 11204","level":"elementary","grades":"K-1","opened":2014,"plans":"","ID":25,"note":"*Pending Government Approval"},
{"type":"pending","school":"","lat":40.681389,"lng":-73.753548,"address":"132-55 Ridgedale St., Queens, NY 11413","level":"elementary","grades":"K-1","opened":2014,"plans":"","ID":26,"note":"*Pending Government Approval"},
{"type":"pending","school":"","lat":40.673947,"lng":-73.782673,"address":"156-10 Baisley Blvd. Queens, NY 11434","level":"elementary","grades":"K-1","opened":2014,"plans":"","ID":27,"note":"*Pending Government Approval"},
{"type":"pending","school":"","lat":40.711032,"lng":-74.001322,"address":"411 Peral Street, Manhattan, NY 10038","level":"elementary","grades":"K-1","opened":2014,"plans":"","ID":28,"note":"*Pending Government Approval"}]